{'lat': '59.93333', 'label': 'Мосты Санкт-Петербурга', 'label_en': 'Mosty Sankt-Peterburga', 'short': 'Дворцовый мост \n (59.941234,30.308011)\nОткрыт 23 декабря 1916г. Детище инженера  А.П. Пшеницкого. Длина моста — 260,1 м, ширина — 27,8 м. Соединяет Васильевский и Адмиралтейский остров.\n Адрес: \n  Дворцовая набережная. \nАничков мост \n(59.933334,30.343453)\nПервоначально деревянный (1715 г). С 1783—1787гг - каменный, в настоящем виде с  1841-1842 гг. Знаменит конными скульптурами  П.К. Клодта. Аничковым назван в честь подполковника М.Аничква, подразделение которого размещалась в Аничковой слободе, расположенной за Фонтанкой\nАдрес: \n Адрес: Невский проспект\nБлаговещенский мост \n(59.934806,30.2896)\nОткрыт в  1850 г и на тот момент был самым длинным мостом в Европе. Авторы конструкции - инженеры С.В. Кербедза и Дж. Уистлер, в оформлении участвовал архитектор А.П. Брюллов. В период от создания проекта и до н.в. - неоднократно переименовывался (Невский, Благовещенский, Николаевский, мост Лейтенанта Шмидта) С 2007г. вернул свое историческое название.\nАдрес: \n Английская набережная\nБольшой Конюшенный мост\n(59.942061,30.323115)\nДлина моста 28,8 м, ширина — 11,6 м. Первая версия возведена в 1753 г., просуществовала до 1880-х годов и представляла собой разводной деревянный мост.  В 1828 г. взамен деревянного был построен чугунный мост (инженеры Е.А. Адам, В.К. Треттер , В.И. Гесте). В 1935 г был укреплен железобетонными конструкциями (инженеры М.И. Жданов и А.Д.Саперштейн).\nАдрес: \nнабережная реки Мойки\nЭрмитажный мост\n(59.942642,30.316876)\nПервая версия (1718-1720 гг) была деревянной и разводной. В каменном виде существует с 1763—1766 гг., одновременно гранитной набережной р. Невы. Последняя монолитная каменная версия от 1935 г. ( инженер А.Д.Саперштейн и архитектор К.М. Дмитриев). Считается старейшим каменным мостом Питера.\nАдрес: \n Дворцовая набережная\nБанковский мост\n (59.932183,30.32488)\nПостроен в 1825-1826 гг для облегчения сообщения с Ассигнационным банком (ныне Санкт-Петербургская государственная академия экономики и финансов). Авторы проекта-инженеры В. К. Треттер и В. А. Христианович, скульптор П.П. Соколов- автор не малого количества животных и мифических существ, часто встречающихся в городской застройке.\nАдрес: \nНабережная Канала Грибоедова\nЕгипетский мост\n (\ufeff59.917222, 30.297222)\nПостроен в 1825-1826 гг через Фонтанку. Цепной однопролётный мост был богато украшен символикой Древнего Египта - 4 сфинкса, орнаменты из иероглифов. Обрушился в 1905-м, восстановлен в середине 1950-х, реставрирован в 2004-м. \nАдрес: \nЛермонтовский проспект', 'label_ru': 'Список мостов Санкт-Петербурга', 'long': '30.34345'}
{'lat': '59.93333', 'label': 'Памятник Екатерине II', 'label_en': 'Pamjatnik Ekaterine II', 'short': 'Был установлен в 1873 году. Проектировался М. Микешиным. По замыслу должен был стоять в Царском Селе. Вокруг разбит сквер.', 'label_ru': 'Памятник Екатерине II', 'long': '30.33695'}
{'lat': '59.9403', 'label': 'Михаиловский (Инженерный) замок', 'long': '30.33773', 'label_en': 'Mihailovskij (Inzhenernyj) zamok', 'short': 'Ансамбль Михайловского замка построен в 1797-1801 гг., архитекторы В. Бренна и В. Баженов. Единственное в России дворцовое сооружение в стиле романтического классицизма. Строился как парадная резиденция императора Павла I. Название получил в честь Архангела Михаила - небесного покровителя Дома Романовых. После убийства, произошедшего здесь в ночь с 11 на 12 марта 1801 г., замок потерял значение парадной резиденции. С 1823 г. здесь разместилось Николаевское Инженерное училище, давшее замку новое название - Инженерный. \nВ настоящее время - филиал Русского музея. Постоянные экспозиции - "Античные сюжеты в русском искусстве", "Эпоха Ренессанса в творчестве русских художников", "История замка и его обитателей" и "Открытый фонд скульптуры".'}
{'lat': '59.94085', 'label': 'Музей-квартира Пушкина на Мойке', 'label_en': 'Muzej-kvartira Pushkina na Mojke', 'short': 'Здесь жил Пушкин и отсюда уехал на дуэль. Наиболее известный и посещаемый музей поэта в стране.', 'label_ru': 'Музей-квартира А. С. Пушкина (Санкт-Петербург)', 'long': '30.32151'}
{'lat': '59.94055', 'label': 'Памятник Ломоносову', 'label_en': 'Pamjatnik Lomonosovu', 'short': 'Открыт 21 ноября 1986 г. Высота памятника примерно 3м. Выполнен из бронзы. Находится у государственного университета', 'label_ru': 'Памятник Ломоносову', 'long': '30.30161'}
{'lat': '59.95568', 'label': 'Архитектурно - познавательный и туристский центр "Мини-город"', 'long': '30.31685', 'label_en': 'Arhitekturno - poznavatel\'nyj i turistskij tsentr "Mini-gorod"', 'short': None}
{'lat': '59.94103', 'label': 'Памятник В.Корчмину', 'long': '30.28063', 'label_en': 'Pamjatnik V.Korchminu', 'short': 'Памятник бомбардиру В.Корчмину, герою легенды возникновения названия Васильевский остров. Открыт в 2003г.'}
{'lat': '59.94947', 'label': 'Музей кофе', 'label_en': 'Muzej kofe', 'short': 'Частный музей - выставочный зал и дегустационная терраса. Экспонаты по истории, технологии обработки и приготовлению кофе.', 'label_ru': 'Музей кофе', 'long': '30.36252'}
{'lat': '59.94513', 'label': 'Мраморный дворец', 'label_en': 'Mramornyj dvorets', 'short': 'Филиал Русского музея. Дворец построен в 1768-1785 гг. по проекту Ринальди в стиле классицизма. В залах  разместилась постоянная экспозиция "Иностранные художники в России XVIII — первой половины XIX века", проходят временные выставки. В настоящее время дворец также  используется для проведения различных конгрессов.', 'label_ru': 'Мраморный дворец', 'long': '30.32673'}
{'lat': '59.94576', 'label': 'Смоленское кладбище', 'label_en': 'Smolenskoe kladbische', 'short': 'Смоленское православное кладбище, старейшее из действующих в городе, учреждено в середине 18 века. На территории находятся церковь Смоленской иконы Божией Матери (построена в 1783 году по проекту А.Иванова) и часовня блаженной Ксении Петербургской (построена в 1902 году по проекту А.Всеславина).', 'label_ru': 'Смоленское кладбище', 'long': '30.25271'}
{'lat': '59.93933', 'label': 'Интерактивная экспозиция "Автолегенды Голливуда"', 'long': '30.32585', 'label_en': 'Interaktivnaja ekspozitsija "Avtolegendy Gollivuda"', 'short': 'Выставка автомобилей США 1940-1970 гг, узнаваемых по знаменитым кинокартинам. \nНе на ходу. Во всех автомобилях можно сидеть, открывать-закрывать окна и двери, крутить руль, а также фотографироваться со вспышкой и без таковой на фоне автомобилей и декораций на темы фимльмов.'}
{'lat': '59.95545', 'label': 'Бюст Павлу Нахимову и  скульптура «Служим Родине с детства»', 'long': '30.33651', 'label_en': "Bjust Pavlu Nahimovu i  skul'ptura «Sluzhim Rodine s detstva»", 'short': 'Бюст Нахимову( приведены координаты)  установлен в 2004 г. в честь 40-летия Нахимовского училища.\nСкульптура «Служим Родине с детства»-2016г., скульптор - Арутюн Акобян, материал - бронза'}
{'lat': '59.93873', 'label': 'Музей электрического транспорта', 'label_en': 'Muzej elektricheskogo transporta', 'short': 'Расположен на территории Трамвайного парка № 2 на Васильевском острове. Среди экспонатов музея трамвайный вагон Brush, трамвайный вагон МС-1, трамвайный поезд ЛМ-33 и многие другие. За основу формирования коллекции был взят принцип полного восстановления вагонов и машин. Музей имеет и "неподвижную" экспозицию. Здесь посетителей ждут архивные документы и фотографии, карты, макеты конки и трамваев, образцы форменной одежды работников трамвая, подлинные кассовые аппараты и многое другое.', 'label_ru': 'Музей электрического транспорта', 'long': '30.25985'}
{'lat': '59.97486', 'label': 'Музей "Искусство веера"', 'long': '30.30411', 'label_en': 'Muzej "Iskusstvo veera"', 'short': '250 экспонатов начиная с XVII века. Есть редкие экзепляры'}
{'lat': '59.95678', 'label': 'Памятник Максиму Горькому', 'label_en': "Pamjatnik Maksimu Gor'komu", 'short': '1968г., архитектор - Е.А.Левинсон, скульпторы - В.В.Исаева и М.Р.Габе.', 'label_ru': 'Памятник Максиму Горькому', 'long': '30.31978'}
{'lat': '59.93151', 'label': 'Часовня Николая Чудотворца', 'label_en': 'Chasovnja Nikolaja Chudotvortsa', 'short': '1998г., православная, действующая', 'label_ru': 'Часовня Николая Чудотворца', 'long': '30.28169'}
{'lat': '60.02481', 'label': 'Церковь Сретения Господня', 'label_en': "Tserkov' Sretenija Gospodnja", 'short': 'Храм построен в 2008 году в ново‑византийском стиле по проекту архитектора Г. Челбогашева. Освящен 13 ноября 2016 года.', 'label_ru': 'Сретенская церковь', 'long': '30.41081'}
{'lat': '59.98247', 'label': 'Retro Car Show - музей ретро автомобилей', 'long': '30.21033', 'label_en': 'Retro Car Show - muzej retro avtomobilej', 'short': 'Музей компании Muscle car, занимающейся преимущественно американскими автомобилями.'}
{'lat': '59.93033', 'label': 'Музей живых тропических бабочек "Тропический рай"', 'long': '30.32176', 'label_en': 'Muzej zhivyh tropicheskih babochek "Tropicheskij raj"', 'short': 'В атмосфере джунглей свободно порхают живые тропические бабочки со всего света (из стран Центральной и Южной Америки, Африки, Южной и Юго-Восточной Азии)'}
{'lat': '59.80405', 'label': 'Музей "Александр Невский и Невская битва"', 'long': '30.60478', 'label_en': 'Muzej "Aleksandr Nevskij i Nevskaja bitva"', 'short': 'Диорама, посвященная историческим событиям 1240 года.'}
{'lat': '59.96989', 'label': '"Зоопарк имени Чебурашки"', 'long': '30.23258', 'label_en': '"Zoopark imeni Cheburashki"', 'short': 'Мини-зоопарк при ресторанном комплексе.'}
{'lat': '59.80457', 'label': 'Церковь Святого благоверного князя Александра Невского и памятник Александу Невскому', 'long': '30.60191', 'label_en': "Tserkov' Svjatogo blagovernogo knjazja Aleksandra Nevskogo i pamjatnik Aleksandu Nevskomu", 'short': 'Церковь возведена в 1798-1799 годах на том самом месте, где Ижора впадает в Неву,\nгде в 1240 году князь Александр Ярославич разбил шведов и получил свое прозвище - Невский.\nАрхитекторы: В. И. и П. В. Нееловы. \nПамятник установлен в мае 2003 г. на берегу устья реки Ижоры, рядом с Церковью Александра Невского. (59.804641, 30.602830)\nАвторы: В. Э. Горевой и В. В. Попов'}
{'lat': '59.92969', 'label': 'Парк и арт-лофт пространство на рукотворном острове Новая Голландия', 'long': '30.28888', 'label_en': 'Park i art-loft prostranstvo na rukotvornom ostrove Novaja Gollandija', 'short': 'Парк и арт-лофт пространство на рукотворном острове Новая Голландия создан на основе переоборудованных складов XVIII-XIX века.  На терртории парка находятся исторические здания: кузня (находятся клуб-ресторан и кафе-кулинари), бутылка, дом коменданта (самая поздняя историческая постройка на острове). Так же на терриории проводятся выставки, концерты. Есть детская игровая площадка "Фрегат", выполненная в форме каркаса корабля.'}
{'lat': '59.9358', 'label': 'Музей гигиены', 'label_en': 'Muzej gigieny', 'short': 'Открыт в 1919 в здании 1755 г, принадлежащем графу Шувалову. Основная цель- популяризация гигиены среди населения.', 'label_ru': 'Музей гигиены', 'long': '30.33729'}